{
    "type": "HotspotCollection",
    "hotspot": [
        {
            "type": "hotspot",
            "properties": {
                "place": "民族西路、台2甲、民族東路",
                "casenum": "16",
                "death": "0",
                "injuried": "22"
            },
            "geometry": {
                "type": "point",
                "coordinates": [
                    121.522858,
                    25.068424
                ]
            }
        },
        {
            "type": "hotspot",
            "properties": {
                "place": "林森北路、市民大道二段",
                "casenum": "13",
                "death": "0",
                "injuried": "26"
            },
            "geometry": {
                "type": "point",
                "coordinates": [
                    121.524227,
                    25.047802
                ]
            }
        },
        {
            "type": "hotspot",
            "properties": {
                "place": "八德路二段、市民大道三段",
                "casenum": "13",
                "death": "0",
                "injuried": "14"
            },
            "geometry": {
                "type": "point",
                "coordinates": [
                    121.534633,
                    25.044990
                ]
            }
        },
        {
            "type": "hotspot",
            "properties": {
                "place": "北安路、北安路機車專用道",
                "casenum": "11",
                "death": "1",
                "injuried": "17"
            },
            "geometry": {
                "type": "point",
                "coordinates": [
                    121.550281,
                    25.086324
                ]
            }
        },
        {
            "type": "hotspot",
            "properties": {
                "place": "大直街、北安路670巷、北安路",
                "casenum": "11",
                "death": "0",
                "injuried": "12"
            },
            "geometry": {
                "type": "point",
                "coordinates": [
                    121.549286,
                    25.084145
                ]
            }
        },
        {
            "type": "hotspot",
            "properties": {
                "place": "建國北路二段、長春路",
                "casenum": "10",
                "death": "0",
                "injuried": "14"
            },
            "geometry": {
                "type": "point",
                "coordinates": [
                    121.537109,
                    25.054753
                ]
            }
        },
        {
            "type": "hotspot",
            "properties": {
                "place": "吉林路、民權東路二段",
                "casenum": "10",
                "death": "0",
                "injuried": "13"
            },
            "geometry": {
                "type": "point",
                "coordinates": [
                    121.530302,
                    25.062531
                ]
            }
        },
        {
            "type": "hotspot",
            "properties": {
                "place": "建國北路二段、民權東路二段、建國北路三段、民權東路三段",
                "casenum": "10",
                "death": "0",
                "injuried": "12"
            },
            "geometry": {
                "type": "point",
                "coordinates": [
                    121.537238,
                    25.062434
                ]
            }
        },
        {
            "type": "hotspot",
            "properties": {
                "place": "南京東路一段、林森北路",
                "casenum": "7",
                "death": "0",
                "injuried": "14"
            },
            "geometry": {
                "type": "point",
                "coordinates": [
                    121.525385,
                    25.052110
                ]
            }
        },
        {
            "type": "hotspot",
            "properties": {
                "place": "市民大道二段、市民大道一段、台1甲",
                "casenum": "7",
                "death": "0",
                "injuried": "11"
            },
            "geometry": {
                "type": "point",
                "coordinates": [
                    121.520729,
                    25.048084
                ]
            }
        }
    ]
}
